[
  {
    "name": "New York",
    "lat": 40.7127,
    "lon": -74.006
  },
  {
    "name": "Paris",
    "lat": 48.8535,
    "lon": 2.3484
  },
  {
    "name": "Tokyo",
    "lat": 35.6769,
    "lon": 139.7639
  },
  {
    "name": "Toliara",
    "lat": -23.3542,
    "lon": 43.6697
  },
  {
    "name": "Mahajanga",
    "lat": -15.7181,
    "lon": 46.3173
  },
  {
    "name": "Toamasina",
    "lat": -18.1554,
    "lon": 49.4098
  }
]