[
  {
    "name": "Paris",
    "lat": 48.8566,
    "lon": 2.3522
  },
  {
    "name": "Tokyo",
    "lat": 35.6895,
    "lon": 139.6917
  },
  {
    "name": "New York",
    "lat": 40.7128,
    "lon": -74.0060
  },
  {
    "name": "Antananarivo",
    "lat": -23.374342,
    "lon": 43.771008
  },
  {
    "name": "Toliara",
    "lat": -15.711775,
    "lon": 46.399624
  },
  {
    "name": "Mahajanga",
    "lat": -18.172232,
    "lon": 49.385963
  }
]
